 {
"type": "FeatureCollection",
"name": "GymParkPoint",
"crs": { "type": "name", "properties": { "name": "urn:ogc:def:crs:OGC:1.3:CRS84" } },
"features": [
{ "type": "Feature", "properties": { "number": "1", "block ": "א'", "name": "גן אלישבע", "street": "שד' הטיילת", "y": "34.640361", "x": "31.809257" },"facilities":{
 "arr":[ "חתירה",
	 "צעידה באוויר",
     "מולטי דחיקת רגליים",
     "פרפר",
     "כורסא פשיטת רגליים",
     "אופני ספינינג",
     "הרקולס משיכה",
     "הרקולס דחיקה"]
  }, "geometry": { "type": "Point", "coordinates": [ 34.640361, 31.809257 ] } },
{ "type": "Feature", "properties": { "number": "2", "block ": "א'", "name": "גן שבי ציון", "street": "רח' ההגנה", "y": "34.647223", "x": "31.807238" },"facilities":{
 "arr":[ "חתירה",
	 "פרפר",
     "מולטי דחיקת רגליים",
     "ויולט",
     "כורסא פשיטת רגליים",
     "מאמן בטן גב",
     "שחרור כתפיים",
     "הרקולס משולב"]
  }, "geometry": { "type": "Point", "coordinates": [ 34.647223, 31.807238 ] } },
{ "type": "Feature", "properties": { "number": "3", "block ": "ב'", "name": "גן הלוחמים", "street": "רח' המעפילים", "y": "34.652739", "x": "31.806996" },"facilities":{
 "arr":[ "חתירה",
	 "צעידה באוויר",
     "מולטי דחיקת רגליים",
     "פרפר",
     "כורסא פשיטת רגליים",
     "אופני שכיבה",
     "הרקולס משיכה",
     "הרקולס דחיקה"]
  }, "geometry": { "type": "Point", "coordinates": [ 34.652739, 31.806996 ] } },
{ "type": "Feature", "properties": { "number": "4", "block ": "ב'", "name": "פארק בן גוריון", "street": "רח' מורדי הגטאות", "y": "34.657588", "x": "31.803937" },"facilities":{
 "arr":[ "חתירה",
	 "צעידה באוויר",
     "מולטי דחיקת רגליים",
     "פרפר",
     "כורסא פשיטת רגליים",
     "אופני שכיבה",
     "הרקולס משיכה",
     "הרקולס דחיקה",
	 "ויולט",
	 "פרפר הפוך",
	 "מאמן בטן ואגן",
	 "פילאטיס",
	 "הרקולס דחיפה",
	 "סקי זוגי",
	 "מתח",
	 "מקבילית",
	 "מיטת בטן זוגית"]
  }, "geometry": { "type": "Point", "coordinates": [ 34.657588, 31.803937 ] } },
{ "type": "Feature", "properties": { "number": "5", "block ": "ג'", "name": "גן יהונתן", "street": "רח' עוזיהו  ", "y": "34.659586", "x": "31.800389" },"facilities":{
 "arr":[ "חתירה",
	 "צעידה באוויר",
     "מולטי דחיקת רגליים",
     "פרפר",
     "כורסא פשיטת רגליים",
     "אופני ספינינג",
     "הרקולס משיכה",
     "הרקולס דחיקה"]
  }, "geometry": { "type": "Point", "coordinates": [ 34.659586, 31.800389 ] } },
{ "type": "Feature", "properties": { "number": "6", "block ": "ד'", "name": "גן בורדו", "street": "רח' רוגוזין", "y": "34.639548", "x": "31.801878" },"facilities":{
 "arr":[ "חתירה",
	 "צעידה באוויר",
     "מולטי דחיקת רגליים",
     "פרפר",
     "כורסא פשיטת רגליים",
     "אופני ספינינג",
     "הרקולס משיכה",
     "הרקולס דחיפה"]
  }, "geometry": { "type": "Point", "coordinates": [ 34.639548, 31.801878 ] } },
{ "type": "Feature", "properties": { "number": "7", "block ": "ד'", "name": "גן יערי", "street": "שד' משה דיין", "y": "34.638223", "x": "31.798092" },"facilities":{
 "arr":[ "מאמן בטן ואגן",
		 "פילאטיס",
		 "הרקולס דחיפה",
		 "סקי זוגי",
		 "מתח",
		 "מקבילית",
		 "מיטת בטן זוגית"]
  }, "geometry": { "type": "Point", "coordinates": [ 34.638223, 31.798092 ] } },
{ "type": "Feature", "properties": { "number": "8", "block ": "ה'", "name": "גן אלון", "street": "שד' בני ברית ", "y": "34.653939", "x": "31.798516" },"facilities":{
 "arr":[ "חתירה",
	 "צעידה באוויר",
     "מולטי דחיקת רגליים",
     "פרפר",
     "כורסא פשיטת רגליים",
     "אופני ספינינג",
     "הרקולס משיכה",
     "הרקולס דחיפה"]
  }, "geometry": { "type": "Point", "coordinates": [ 34.653939, 31.798516 ] } },
{ "type": "Feature", "properties": { "number": "9", "block ": "ה'", "name": "גן המחתרות", "street": "שד' הרצל ", "y": "34.642624", "x": "31.7949" },"facilities":{
 "arr":[ "חתירה",
	 "צעידה באוויר",
     "מולטי דחיקת רגליים",
     "פרפר",
     "כורסא פשיטת רגליים",
     "אופני ספינינג",
     "הרקולס משיכה",
     "הרקולס דחיפה"]
  }, "geometry": { "type": "Point", "coordinates": [ 34.642624, 31.7949 ] } },
{ "type": "Feature", "properties": { "number": "10", "block ": "ו'", "name": "גן לביוב", "street": "רח' שלמה בן יוסף", "y": "34.656561", "x": "31.794254" },"facilities":{
 "arr":[ "חתירה",
	 "צעידה באוויר",
     "מולטי דחיקת רגליים",
     "פרפר",
     "כורסא פשיטת רגליים",
     "אופני ספינינג",
     "הרקולס משיכה",
     "הרקולס דחיפה"]
  }, "geometry": { "type": "Point", "coordinates": [ 34.656561, 31.794254 ] } },
{ "type": "Feature", "properties": { "number": "11", "block ": "ח'", "name": "גן הסייפן", "street": "רח' הסייפן", "y": "34.653179", "x": "31.785322" },"facilities":{
 "arr":[ "חתירה",
		 "מאמן בטן ואגן",
		 "מולטי דחיקת רגליים",
		 "פרפר",
		 "כורסא פשיטת רגליים",
		 "ויולט",
		 "שחרור כתפיים",
		 "הרקולס דחיפה"]
  }, "geometry": { "type": "Point", "coordinates": [ 34.653179, 31.785322 ] } },
{ "type": "Feature", "properties": { "number": "12", "block ": "ח'", "name": "גן מרכזי ח'", "street": "שד' הפרחים", "y": "34.653054", "x": "31.786936" },"facilities":{
 "arr":[ "חתירה",
	 "צעידה באוויר",
     "מולטי דחיקת רגליים",
     "פרפר",
     "כורסא פשיטת רגליים",
     "אופני שכיבה",
     "הרקולס משיכה",
     "הרקולס דחיקה",
	 "ויולט",
	 "פרפר הפוך",
	 "מאמן בטן ואגן",
	 "פילאטיס",
	 "הרקולס דחיפה",
	 "סקי זוגי",
	 "מתח",
	 "מקבילית",
	 "מיטת בטן זוגית"]
  }, "geometry": { "type": "Point", "coordinates": [ 34.653054, 31.786936 ] } },
{ "type": "Feature", "properties": { "number": "13", "block ": "ט'", "name": "גן בוזגלו", "street": "רח' ריינס", "y": "34.658945", "x": "31.788062" },"facilities":{
 "arr":[ "חתירה",
		 "מאמן בטן ואגן",
		 "מולטי דחיקת רגליים",
		 "פרפר",
		 "כורסא פשיטת רגליים",
		 "ויולט",
		 "שחרור כתפיים",
		 "הרקולס דחיפה"]
  }, "geometry": { "type": "Point", "coordinates": [ 34.658945, 31.788062 ] } },
{ "type": "Feature", "properties": { "number": "14", "block ": "ט'", "name": "גן טיילת משה סנה", "street": "שד' משה סנה", "y": "34.667883", "x": "31.788341" },"facilities":{
 "arr":[ "מקבילית 14",
		 "משושה מתחים",
		 "חבל טיפוס"]
  }, "geometry": { "type": "Point", "coordinates": [ 34.667883, 31.788341 ] } },
{ "type": "Feature", "properties": { "number": "15", "block ": "ט'", "name": "גן מרכזי ט'", "street": "רח' גיא אוני ", "y": "34.660517", "x": "31.784526" },"facilities":{
 "arr":[ "חתירה",
		 "מולטי דחיקת רגליים",
		 "פרפר",
		 "כורסא פשיטת רגליים",
		 "צעידה באוויר",
		 "הרקולס דחיפה",
		 "הרקולס משיכה",
		 "אופני שכיבה"]
  }, "geometry": { "type": "Point", "coordinates": [ 34.660517, 31.784526 ] } },
{ "type": "Feature", "properties": { "number": "17", "block ": "מרינה", "name": "פארק אשדוד ים", "street": "רח' מפקורה", "y": "34.635532", "x": "31.796859" },"facilities":{
 "arr":[ "פרפר הידרראולי",
		 "ספת כפיפות בטן",
		 "דחיקת רגליים הידראולי",
		 "סקווט הידראולי",
		 "יריכיים הידראולי",
		 "מקבילית משולב מתח",
		 "אייר ווקי זוגי הידראולי",
		 "טרייספס הידראולי",
		 "לחיצת כתפיים הידראולי",
		 "פולי עליון הידראולי",
		 "ידיים הידראולי",
		 "סיבוב אגן הידראולי",
		 "סטפר הידראולי",
		 "חזה הידראולי בשכיבה",
		 "כורסת עבודה רגליים הידראולי",
		 "קיקבוקס"]
  }, "geometry": { "type": "Point", "coordinates": [ 34.635532, 31.796859 ] } },
{ "type": "Feature", "properties": { "number": "18", "block ": "טו'", "name": "גן גורדון", "street": "שד' גורדון", "y": "34.630928", "x": "31.772136" },"facilities":{
 "arr":[ "חתירה",
		 "צעידה באוויר",
		 "מולטי דחיקת רגליים",
		 "פרפר",
		 "כורסא פשיטת רגליים",
		 "אופני ספינינג",
		 "הרקולס משיכה",
		 "הרקולס דחיקה"]
  }, "geometry": { "type": "Point", "coordinates": [ 34.630928, 31.772136 ] } },
{ "type": "Feature", "properties": { "number": "19", "block ": "טו'", "name": "גן חסן", "street": "שד' משה דיין פינת שד' מוטה גור", "y": "34.625389", "x": "31.776581" },"facilities":{
 "arr":[ "חתירה",
		 "צעידה באוויר",
		 "מולטי דחיקת רגליים",
		 "פרפר",
		 "כורסא פשיטת רגליים",
		 "אופני ספינינג",
		 "הרקולס משיכה",
		 "הרקולס דחיקה"]
  }, "geometry": { "type": "Point", "coordinates": [ 34.625389, 31.776581 ] } },
{ "type": "Feature", "properties": { "number": "20", "block ": "י'", "name": "גן עתיקות (block י')", "street": "רח' שמואל הנביא", "y": "34.653411", "x": "31.782044" },"facilities":{
 "arr":[ "חתירה",
		 "צעידה באוויר",
		 "מולטי דחיקת רגליים",
		 "פרפר",
		 "כורסא פשיטת רגליים",
		 "הרקולס משיכה",
		 "הרקולס דחיקה",
		 "אופני שכיבה",
		 "ויולט",
		 "פרפר הפוך",
		 "מאמן בטן ואגן",
		 "פילאטיס",
		 "סקי זוגי",
		 "מתח",
		 "מקבילית",
		 "מיטת בטן זוגית"]
  }, "geometry": { "type": "Point", "coordinates": [ 34.653411, 31.782044 ] } },
{ "type": "Feature", "properties": { "number": "21", "block ": "י'", "name": "גן אסירי ציון", "street": "שד' בן עמי פינת שד' בני ברית", "y": "34.644452", "x": "31.781853" },"facilities":{
 "arr":[ "חתירה",
		 "צעידה באוויר",
		 "מולטי דחיקת רגליים",
		 "פרפר",
		 "כורסא פשיטת רגליים",
		 "אופני שכיבה",
		 "הרקולס משיכה",
		 "הרקולס דחיפה"]
  }, "geometry": { "type": "Point", "coordinates": [ 34.644452, 31.781853 ] } },
{ "type": "Feature", "properties": { "number": "22", "block ": "יא'", "name": "גן גולדה", "street": "רח' הרי גולן", "y": "34.631388", "x": "31.783869" },"facilities":{
 "arr":[ "חתירה",
		 "צעידה באוויר",
		 "מולטי דחיקת רגליים",
		 "פרפר",
		 "כורסא פשיטת רגליים",
		 "אופני שכיבה",
		 "הרקולס משיכה",
		 "הרקולס דחיפה"]
  }, "geometry": { "type": "Point", "coordinates": [ 34.631388, 31.783869 ] } },
{ "type": "Feature", "properties": { "number": "23", "block ": "יא'", "name": "גן מצדה", "street": "רח' מצדה", "y": "34.626717", "x": "31.780354" },"facilities":{
 "arr":[ "חתירה",
		 "צעידה באוויר",
		 "מולטי דחיקת רגליים",
		 "פרפר",
		 "כורסא פשיטת רגליים",
		 "הרקולס משיכה",
		 "הרקולס דחיפה",
		 "שחרור כתפיים",
		 "ויולט",
		 "פרפר הפוך",
		 "מאמן בטן ואגן",
		 "פילאטיס/מקבילית",
		 "מתח משולח מקבילית",
		 "מיטת בטן זוגית"]
  }, "geometry": { "type": "Point", "coordinates": [ 34.626717, 31.780354 ] } },
{ "type": "Feature", "properties": { "number": "24", "block ": "יב'", "name": "גן ספרא", "street": "רח' אדר", "y": "34.637875", "x": "31.779644" },"facilities":{
 "arr":[ "מאמן בטן גב",
		 "פילאטיס",
		 "הרקולס דחיקה",
		 "סקי זוגי",
		 "מתח",
		 "מקבילית",
		 "מיטת בטן זוגית"]
  }, "geometry": { "type": "Point", "coordinates": [ 34.637875, 31.779644 ] } },
{ "type": "Feature", "properties": { "number": "25", "block ": "יג'", "name": "גן אבנר גרעין", "street": "שד' דוד המלך ", "y": "34.643005", "x": "31.775811" },"facilities":{
 "arr":[ "חתירה",
		 "צעידה באוויר",
		 "מולטי דחיקת רגליים",
		 "פרפר",
		 "כורסא פשיטת רגליים",
		 "אופני ספינינג",
		 "הרקולס משיכה",
		 "הרקולס דחיפה"]
  }, "geometry": { "type": "Point", "coordinates": [ 34.643005, 31.775811 ] } },
{ "type": "Feature", "properties": { "number": "26", "block ": "יז'", "name": "גן מרכזי יז'", "street": "רח' סיטרין", "y": "34.626113", "x": "31.768608" },"facilities":{
 "arr":[ "סקי",
		 "אופני שכיבה",
		 "הרקולס משיכה",
		 "מקבילית",
		 "שרירי גב",
		 "חתירה",
		 "מסובב אגן",
		 "מעסה גב",
		 "אופניים"]
  }, "geometry": { "type": "Point", "coordinates": [ 34.626113, 31.768608 ] } },
{ "type": "Feature", "properties": { "number": "27", "block ": "יז'", "name": "גן שוהם", "street": "רח' שוהם", "y": "34.631286", "x": "31.765648" },"facilities":{
 "arr":[ "הרקולס",
		 "פרפר",
		 "עיסוי רגל",
		 "צעידה באוויר",
		 "כורסא פשיטת רגליים",
		 "מיטת פשיטת רגליים"]
 },"geometry": { "type": "Point", "coordinates": [ 34.631286, 31.765648 ] } },
{ "type": "Feature", "properties": { "number": "28", "block ": "קריה", "name": "גן מרכזי סיטי", "street": "שד' הרצל ", "y": "34.640423", "x": "31.788707" },"facilities":{
 "arr":[ "חתירה",
		 "צעידה באוויר",
		 "מולטי דחיקת רגליים",
		 "פרפר",
		 "כורסא פשיטת רגליים",
		 "אופני ספינינג",
		 "הרקולס משיכה",
		 "הרקולס דחיפה"]
  }, "geometry": { "type": "Point", "coordinates": [ 34.640423, 31.788707 ] } },
{ "type": "Feature", "properties": { "number": "29", "block ": "טיילת", "name": "טיילת ספורט מקטע 1", "street": "שד' משה דיין - (מול מע\"ר)", "y": "34.63288", "x": "31.791992" },"facilities":{
 "arr":[ "הרקולס משיכה",
		 "הרקולס דחיקה",
		 "אופני שכיבה",
		 "חתירה",
		 "כורסא פשיטת רגליים",
		 "מולטי דחיקת רגליים",
		 "מאמן בטן ואגן",
		 "מיטת בטן זוגית"]
  }, "geometry": { "type": "Point", "coordinates": [ 34.63288, 31.791992 ] } },
{ "type": "Feature", "properties": { "number": "30", "block ": "טיילת", "name": "טיילת ספורט מקטע 2", "street": "שד' משה דיין - (מול מע\"ר)", "y": "34.631764", "x": "31.791439" },"facilities":{
 "arr":[ "מתקן מתיחות",
		 "אופני כף רגל",
		 "מאמן חגורת כתפיים",
		 "שחרור כתפיים",
		 "חתירה",
		 "ויולט"]
  }, "geometry": { "type": "Point", "coordinates": [ 34.631764, 31.791439 ] } },
{ "type": "Feature", "properties": { "number": "31", "block ": "טיילת", "name": "טיילת ספורט מקטע 3", "street": "שד' משה דיין - (מול מע\"ר)", "y": "34.631421", "x": "31.791122" },"facilities":{
 "arr":[ "מאמן בטן ואגן",
		 "אימון מסאג",
		 "פילאטיס"]
  }, "geometry": { "type": "Point", "coordinates": [ 34.631421, 31.791122 ] } },
{ "type": "Feature", "properties": { "number": "32", "block ": "טיילת", "name": "טיילת ספורט מקטע 4", "street": "שד' משה דיין - (מול block יא')", "y": "34.629559", "x": "31.789844" },"facilities":{
 "arr":[ "חתירה",
		 "צעידה באוויר",
		 "פרפר",
		 "אופני ספינינג",
		 "אופני שכיבה",
		 "סקי זוגי",
		 "הרקולס משיכה",
		 "הרקולס דחיפה"]
  }, "geometry": { "type": "Point", "coordinates": [ 34.629559, 31.789844 ] } },
{ "type": "Feature", "properties": { "number": "33", "block ": "טיילת", "name": "טיילת ספורט מקטע 5", "street": "שד' משה דיין - (מול block יא')", "y": "34.627925", "x": "31.788024" },"facilities":{
 "arr":[ "חתירה",
		 "צעידה באוויר",
		 "מולטי דחיקת רגליים",
		 "כורסא פשיטת רגליים",
		 "אופני שכיבה",
		 "ויולט",
		 "אופני ספינינג",
		 "הרקולס משיכה"]
  }, "geometry": { "type": "Point", "coordinates": [ 34.627925, 31.788024 ] } },
{ "type": "Feature", "properties": { "number": "34", "block ": "טיילת", "name": "טיילת ספורט מקטע 6", "street": "שד' משה דיין - (מול block יא')", "y": "34.626882", "x": "31.786016" },"facilities":{
 "arr":[ "מתח",
		 "מיטת בטן זוגית",
		 "מקבילית",
		 "הרקולס דחיקה"]
  }, "geometry": { "type": "Point", "coordinates": [ 34.626882, 31.786016 ] } },
{ "type": "Feature", "properties": { "number": "35", "block ": "טיילת", "name": "טיילת ספורט מקטע 7", "street": "שד' משה דיין - (מול block יא')", "y": "34.626353", "x": "31.784865" },"facilities":{
 "arr":[ "מאמן בטן ואגן",
		 "חתירה",
		 "הרקולס משיכה"]
  }, "geometry": { "type": "Point", "coordinates": [ 34.626353, 31.784865 ] } },
{ "type": "Feature", "properties": { "number": "36", "block ": "טיילת", "name": "טיילת ספורט מקטע 8", "street": "שד' משה דיין - (מול block יא')", "y": "34.625186", "x": "31.781879" },"facilities":{
 "arr":[ "פרפר הפוך",
		 "הרקולס דחיקה",
		 "אופני ספינינג",
		 "סקי זוגי"]
  }, "geometry": { "type": "Point", "coordinates": [ 34.625186, 31.781879 ] } },
{ "type": "Feature", "properties": { "number": "37", "block ": "טיילת", "name": "טיילת ספורט מקטע 9", "street": "שד' משה דיין - (מול block טו')", "y": "34.625373", "x": "31.78225" },"facilities":{
 "arr":[ "אופני יד רגל",
		 "הרקולס משיכה",
		 "פרפר",
		 "שחרור כתפיים"]
  }, "geometry": { "type": "Point", "coordinates": [ 34.625373, 31.78225 ] } },
{ "type": "Feature", "properties": { "number": "38", "block ": "טיילת", "name": "טיילת ספורט מקטע 10", "street": "שד' משה דיין - (מול block טו')", "y": "34.625195", "x": "31.78186" },"facilities":{
 "arr":[ "הרקולס דחיקה",
		 "פרפר",
		 "פרפר הפוך"]
  }, "geometry": { "type": "Point", "coordinates": [ 34.625195, 31.78186 ] } },
{ "type": "Feature", "properties": { "number": "39", "block ": "טיילת", "name": "טיילת ספורט מקטע 11", "street": "שד' משה דיין - (מול block טו')", "y": "34.624945", "x": "31.781254" },"facilities":{
 "arr":[ "אופני כף רגל",
		 "מתקן מתיחות",
		 "חתירה",
		 "שחרור כתפיים",
		 "מאמן בטן ואגן"]
  }, "geometry": { "type": "Point", "coordinates": [ 34.624945, 31.781254 ] } },
{ "type": "Feature", "properties": { "number": "40", "block ": "טיילת", "name": "טיילת ספורט מקטע 12", "street": "שד' משה דיין - (מול block טו')", "y": "34.624814", "x": "31.780906" },"facilities":{
 "arr":[ "פילאטיס",
		 "אופני ספינינג",
		 "ויולט",
		 "מאמן חגורת כתפיים"]
  }, "geometry": { "type": "Point", "coordinates": [ 34.624814, 31.780906 ] } },
{ "type": "Feature", "properties": { "number": "41", "block ": "טיילת", "name": "טיילת ספורט מקטע 13", "street": "שד' משה דיין - (מול block טו')", "y": "34.624068", "x": "31.778953" },"facilities":{
 "arr":[ "כורסא פשיטת רגליים",
		 "ויולט",
		 "סקי זוגי",
		 "מולטי דחיקת רגליים",
		 "צעידה באוויר"]
  }, "geometry": { "type": "Point", "coordinates": [ 34.624068, 31.778953 ] } },
{ "type": "Feature", "properties": { "number": "42", "block ": "טיילת", "name": "טיילת ספורט מקטע 14", "street": "שד' משה דיין - (מול block טו')", "y": "34.623869", "x": "31.778228" },"facilities":{
 "arr":[ "צעידה באוויר",
		 "מאמן בטן ואגן",
		 "הרקולס משיכה",
		 "הרקולס דחיפה"]
  }, "geometry": { "type": "Point", "coordinates": [ 34.623869, 31.778228 ] } },
{ "type": "Feature", "properties": { "number": "43", "block ": "טיילת", "name": "טיילת ספורט מקטע 15", "street": "שד' משה דיין - (מול block טו')", "y": "34.62354", "x": "31.777118" },"facilities":{
 "arr":[
		"קיקבוקס"
					]
  }, "geometry": { "type": "Point", "coordinates": [ 34.62354, 31.777118 ] } },
{ "type": "Feature", "properties": { "number": "44", "block ": "טיילת", "name": "טיילת ספורט מקטע 16", "street": "שד' משה דיין - (מול block טו')", "y": "34.623213", "x": "31.77606" },"facilities":{
 "arr":[ "מתח משולב מיטה ומקבילית",
		 "סולמות הליכת ידיים",
		 "מתקן הרמת משקולות"]
  }, "geometry": { "type": "Point", "coordinates": [ 34.623213, 31.77606 ] } },
{ "type": "Feature", "properties": { "number": "45", "block ": "טיילת", "name": "טיילת ספורט מקטע 17", "street": "שד' משה דיין - (מול block טו')", "y": "34.623012", "x": "31.775475" },"facilities":{
 "arr":[ "מתח משולב",
		 "קומבו נחש",
		 "מקבילית"]
  }, "geometry": { "type": "Point", "coordinates": [ 34.623012, 31.775475 ] } }
]
}
